regionID,zipCode,city,lat,lon,yearlyDemand,minutesPerStop
1,40297,SANCHONUÑO,41.3236,-4.305,1511,15.761165855523139
2,25220,BELL-LLOCH,41.6333,0.7833,2535,14.250221131103133
3,45695,ALBERCHE DEL CAUDILLO,39.9189,-4.6801,679,12.66690422028397
4,10335,PERALEDA DE LA MATA,39.8529,-5.4606,3756,12.851194969687532
5,01009,VITORIA-GASTEIZ,42.8535,-2.685,23891,12.095209182802483
6,10530,SERRADILLA,39.8283,-6.1404,256,17.912664126038095
7,27310,SAN CLODIO,42.4225,-7.3047,682,21.883566954632432
8,26230,CASALARREINA,42.548,-2.9119,2006,16.588467835598603
9,13248,ALHAMBRA,38.8992,-3.0526,1677,13.212946885113517
10,17700,"JUNQUERA, LA",42.4191,2.8734,2820,13.882386542587037
11,01300,LAGUARDIA,42.5546,-2.5853,861,16.202014505887448
12,50171,"PUEBLA DE ALFINDEN, LA",41.5321,-0.4035,978,21.833779641974246
13,50160,LECIÑENA,41.798,-0.6116,324,19.24512323434245
14,22449,CERLER,42.5928,0.5397,134,19.069106877994543
15,01160,ARAMAYONA,43.0516,-2.5652,3037,14.735859564194048
16,43740,MORA DE EBRO,41.0833,0.6333,1488,12.771484051924947
17,21004,HUELVA,37.2628,-6.9453,13796,12.903300372302759
18,36500,LALIN,42.8561,-8.2748,1128,16.446600459529208
19,01200,SALVATIERRA,42.8516,-2.3912,763,16.624168948566275
20,01211,PEÑACERRADA,42.671258333333334,-2.7821,714,18.709733145304995
21,15108,LA CORUÑA,43.206300000000006,-8.647884615384616,2254,16.8250432591105
22,40300,SEPULVEDA,41.297,-3.7422,3257,15.87807481374904
23,34310,BECERRIL DE CAMPOS,42.14968571428572,-4.594914285714286,1302,23.547596073969235
24,36208,VIGO,42.2229,-8.7478,24138,11.523535140572426
25,25440,VINAIXA,41.4285,0.975,2036,17.342295351169167
26,26002,LOGROÑO,42.4609,-2.4495,18131,13.72081969025893
27,22004,HUESCA,42.1354,-0.4167,7992,14.264238055104245
28,40410,SAN RAFAEL,40.7142,-4.1917,2903,12.762618735496613
29,41002,SEVILLA,37.3981,-5.9958,72672,10.188125239427242
30,46723,ALMOINES,38.9445,-0.1808,8465,13.40347406652757
31,09219,AMEYUGO,42.674495,-3.040445,3315,16.863990951954573
32,01440,IZARRA,42.9535,-2.90105,2168,13.749315126833212
33,46389,TURIS,39.3833,-0.7,974,16.249036331278237
34,48840,GUEÑES,43.2079,-3.0928,5900,8.992313187727913
35,45650,ESPINOSO DEL REY,39.6533,-4.7837,609,14.538595592029536
36,50529,FUENDEJALON,41.78163333333333,-1.4552666666666667,119,19.702306955402513
37,02004,ALBACETE,38.9933,-1.8653,26416,11.349720941991496
38,21890,MANZANILLA,37.3919,-6.4386,2312,12.308216706057639
39,02100,TARAZONA DE LA MANCHA,39.25,-1.9167,2010,15.650662178098088
40,24500,VILLAFRANCA DEL BIERZO,42.606,-6.8107,802,18.986444811291697
41,02120,PEÑAS DE SAN PEDRO,38.7288,-2.005,994,15.669230938230717
42,02125,AYNA,38.55096666666667,-2.0974666666666666,841,17.19944491903679
43,49622,QUIRUELAS DE VIDRIALES,42.040499999999994,-5.8772400000000005,234,24.59789631890184
44,46360,BUÑOL,39.4211,-0.7898,1622,15.965587235239346
45,33100,TRUBIA,43.3456,-5.9716,796,24.03732465254619
46,02150,VALDEGANGA,39.135,-1.677,1041,15.565904473373157
47,37338,VILLORUELA,41.0083,-5.3943,43,28.977897818397512
48,33199,GRANDA (SIERO),43.36038095238095,-5.762033333333333,26132,13.818042219081612
49,02249,BORMATE,39.17496666666667,-1.5539833333333333,1390,16.451897509377176
50,31520,CASCANTE,41.9972,-1.6808,1137,20.610271344428675
51,42005,SORIA,41.7681,-2.4754,4981,13.86272502986214
52,02247,CENIZATE,39.3032,-1.6614,624,15.695632242446846
53,46019,VALENCIA,39.4698,-0.3774,94334,13.18938337892366
54,40194,SAN CRISTOBAL DE SEGOVIA,40.94026,-4.053839999999999,1283,12.066718620248164
55,48340,AMOREBIETA,43.21323,-2.72178,10645,10.908584980455126
56,18196,SIERRA NEVADA,37.0963,-3.395,92,21.974522963587308
57,24140,VILLASECA DE LACIANA,42.96415,-6.25445,340,25.437377385600165
58,02350,VILLAPALACIOS,38.5753,-2.6334,695,16.183125530270967
59,15999,PORTOSIN (PUERTO DE SON),42.758,-8.9491,1422,16.64036129082987
60,02400,HELLIN,38.5106,-1.701,3389,16.72473541536265
61,37260,VILLAVIEJA DE YELTES,40.8757,-6.4679,744,28.977897818397512
62,02435,SOCOVOS,38.333,-1.9851,446,17.537114325217097
63,43519,PERELLO,40.8667,0.7167,6474,12.623799821214059
64,41500,ALCALA DE GUADAIRA,37.3379,-5.8395,6891,13.257464277508621
65,39610,"ASTILLERO, EL",43.4009,-3.8205,34889,11.802105781019407
66,30009,MURCIA,37.987,-1.13,586,19.681899042376344
67,39709,SAMANO,43.35855,-3.22145,3334,11.837405571892448
68,49300,PUEBLA DE SANABRIA,42.054,-6.6335,252,24.55816706260851
69,16611,CASAS DE HARO,39.3335,-2.2727,3066,15.258612376920095
70,50259,ARANDA DE MONCAYO,41.6078,-1.81645,16,20.665814048910125
71,50740,FUENTES DE EBRO,41.5125,-0.6316,867,23.99893982171762
72,25179,MAYALS,41.3642,0.5047,527,16.674285983038686
73,15148,AGUALADA (CORISTANCO),43.19334,-8.76,223,18.258431123274605
74,02653,ALBATANA,38.5704,-1.524,570,16.043073104193123
75,02690,ALPERA,38.9586,-1.2306,3441,14.175583378627787
76,49137,VILLARRÍN DE CAMPOS,41.7952,-5.639,129,24.431105960016914
77,02693,CORRAL-RUBIO,38.80875,-1.4303,1150,14.830849610365128
78,16700,SISANTE,39.4079,-2.2033,475,17.24368782538911
79,45890,CABEZAMESADA,39.8162,-3.1023,1194,12.370908875771054
80,31830,LAKUNTZA,42.9225,-2.0234,1801,17.074963709144434
81,15379,CURTIS (ESTACION),43.3218,-8.1063,900,17.17665706835231
82,43782,VILLALBA DE LOS ARCOS,41.1167,0.4167,661,12.516213905054467
83,45749,VILLAMUELAS,39.8187,-3.7346,2754,7.420281147350447
84,24690,BUSDONGO,42.9833,-5.7,415,25.853094073232548
85,23210,GUARROMAN,38.1828,-3.687,3989,15.447943900931987
86,32340,VILLAMARTIN DE VALDEORRAS,42.4343,-7.0483,1258,22.724347096699635
87,33830,BELMONTE DE MIRANDA,43.2825,-6.2182,206,26.25210207353364
88,03690,SAN VICENTE DEL RASPEIG,38.3964,-0.5255,12145,13.825246970904491
89,45770,ROMERAL (EL),39.7074,-3.434,903,7.6222285951686795
90,28024,MADRID,40.3921,-3.7728,185004,10.525352947271744
91,03114,ALICANTE,38.32723333333333,-0.5519,25227,14.009658084913955
92,44300,MONREAL DEL CAMPO,40.788,-1.3554,661,15.034094093072861
93,45940,VALMOJADO,40.2047,-4.0889,2710,8.265059209559494
94,15110,PUENTECESO,43.24974444444444,-8.899981481481483,626,17.71978768737888
95,15530,CERDIDO,43.6167,-8.0,1230,14.308311094819667
96,41340,TOCINA,37.6088,-5.7345,929,19.86402708623508
97,03802,ALCOY,38.7054,-0.4743,1113,15.166157274466295
98,03183,TORREVIEJA,37.9907,-0.666,2232,14.630889819827827
99,47851,SAN PEDRO DE LATARCE,41.7356,-5.3259,242,21.717017842020752
100,03190,PILAR DE LA HORADADA,37.8659,-0.7926,8531,13.278270520169292
101,43392,CASTELLVELL,41.1755,1.1016,22812,12.099973323416524
102,37671,SAN ESTEBAN DE LA SIERRA,40.5068,-5.9062,314,28.977897818397516
103,15404,EL FERROL,43.4911,-8.2173,9600,13.41905073872692
104,43371,MARGALEF,41.2849,0.7537,479,13.944985954265087
105,28590,VILLAREJO DE SALVANES,40.1666,-3.2728,3335,12.36634630569215
106,46850,"OLLERIA, L'",38.9395,-0.5214,3153,16.80707192363361
107,12080,CASTELLON DE LA PLANA,40.2108,0.0272,1368,17.89055810405606
108,23611,HIGUERA DE CALATRAVA,37.7985,-4.1574,788,15.034675966401574
109,03360,CALLOSA DE SEGURA,38.13390476190476,-0.8624,4245,16.293137871568646
110,29770,TORROX,36.7593,-3.9525,135,24.59786382690833
111,03158,CATRAL,38.16718888888889,-0.8034555555555555,4123,17.446149903323953
112,15959,PALMEIRA (RIBEIRA),42.5833,-8.95,2129,16.466172245189536
113,45542,CASAR DE ESCALONA (EL),40.0464,-4.5251,2131,6.894184986229414
114,34218,CEVICO DE LA TORRE,41.8511,-4.4097,681,15.205319466342168
115,34480,ALAR DEL REY,42.6604,-4.3127,471,19.916357562042947
116,32740,PARADA DEL SIL,42.3561,-7.535900000000001,275,21.75099997311596
117,17850,BESALU,42.200428571428574,2.696328571428571,1637,14.720857678266395
118,47260,CABEZON DE PISUERGA,41.7616,-4.6236,4025,16.445129674934517
119,46640,MOGENTE,38.8749,-0.7523,113,18.40038033046399
120,03530,"NUCIA, LA",38.611897727272726,-0.1164022727272727,15728,13.916909684435069
121,10910,MALPARTIDA DE CACERES,39.4466,-6.5076,3060,14.147839371492186
122,16841,ALBALATE DE LAS NOGUERAS,40.3661,-2.2772,220,17.53007085003017
123,14140,"VICTORIA, LA",37.6817,-4.8534,610,17.370611736568765
124,45100,SONSECA,39.6774,-3.9771,2366,7.804668047366469
125,47133,VEGA DE VALDETRONCO,41.5902,-5.12345,916,18.1953770812297
126,39292,SAN MIGUEL DE MERUELO,43.01005,-4.036816666666667,1588,12.723775828821024
127,10940,GARROVILLAS,39.7108,-6.5503,545,16.145564710029383
128,33720,BOAL,43.432,-6.8151,261,28.785024343415397
129,33590,COLOMBRES,43.376464285714285,-4.574921428571429,373,16.6501119158172
130,45164,GALVEZ,39.7021,-4.2724,2969,12.345990308781271
131,37240,LUMBRALES,40.9358,-6.7192,65,28.977897818397516
132,41110,CORIA DEL RIO,37.3401,-6.1372,3834,11.902210421746465
133,33780,TREVIAS,43.51730714285714,-6.408528571428571,432,26.58428663664602
134,31540,BUÑUEL,41.9732,-1.4832,231,21.00631085575081
135,03630,SAX,38.5366,-0.8204,5480,18.15643418158487
136,21330,VALDELAMUSA,37.78735,-6.883175,310,20.035944404117206
137,47210,ATAQUINES,41.1817,-4.8031,203,18.864572313483638
138,39795,ESCALANTE,43.4381,-3.5160400000000003,4729,12.847218624736557
139,03291,ELCHE,38.2622,-0.7011,7120,17.279679936988643
140,27740,MONDOÑEDO,43.3287,-7.2771,642,21.298542082082367
141,16670,"PROVENCIO, EL",39.3763,-2.5748,4762,15.211383101005673
142,40355,FUENTESAUCO DE FUENTIDUEÑA,41.4244,-4.0621,505,17.57895326793159
143,27880,BURELA,43.6607,-7.3614,1187,18.569614170240822
144,03749,"POBLETS, ELS",38.69119285714286,0.0007071428571428,7746,14.403460633812042
145,15614,CAMPOLONGO (PONTEDEUME),43.38567777777777,-8.230766666666666,2781,14.843131890525493
146,20700,ZUMARRAGA,43.0894,-2.31545,6079,16.6958460460974
147,16270,VILLALPARDO,39.4722,-1.6248,552,15.168860010673086
148,15270,CEE,42.95473333333334,-9.188116666666668,942,18.246892007956557
149,03790,ORBA,38.7705,-0.1012,1119,14.337160977023823
150,10880,ZARZA LA MAYOR,39.8769,-6.8621,933,16.84231640527927
151,21280,ARROYOMOLINOS DE LEON,38.0167,-6.4167,555,19.322328595625297
152,10693,RIOLOBOS,39.9205,-6.3047,414,16.41723664437383
153,45221,ESQUIVIAS,40.1047,-3.7664,14314,9.145487249441237
154,13360,GRANATULA DE CALATRAVA,38.7969,-3.7434,1283,13.69039070789115
155,46880,BOCAIRENT,38.7657,-0.6118,3509,19.599202694382058
156,20810,ORIO,43.270700000000005,-2.11995,5604,15.42417669343325
157,48610,URDULIZ,43.38191666666666,-2.9495166666666663,40235,8.361612411069965
158,17004,GIRONA,41.9823,2.8265,14293,11.900129506154812
159,31005,PAMPLONA,42.8054,-1.6419,17829,14.814770180459305
160,13650,PUERTO LAPICE,39.3236,-3.4815,1463,8.827002307486712
161,12596,TORREBLANCA,40.20745,0.21,1639,13.86270299189399
162,14870,ZUHEROS,37.5435,-4.3149,1081,20.785808469422737
163,18260,ILLORA,37.341,-3.879,1409,17.68994974535942
164,41310,BRENES,37.5491,-5.8709,3278,15.921753742093316
165,28812,PEZUELA DE LAS TORRES,40.4164,-3.23495,962,15.618654809656816
166,04120,CAÑADA DE SAN URBANO (LA,36.84616666666667,-2.39995,15547,14.11096155529053
167,18656,LECRIN,36.946371428571425,-3.5489285714285717,420,21.069839065373774
168,24420,FABERO,42.7685,-6.625,394,22.139332670458455
169,04270,SORBAS,37.0902,-2.1276,700,21.757694950334635
170,40250,MOZONCILLO,41.1457,-4.1873,805,15.499284972243418
171,31171,ORORBIA,42.8315,-1.772325,531,17.615731581619645
172,41960,GINES,37.3867,-6.078,39,20.702441727313797
173,44410,MOSQUERUELA,40.3614,-0.4481,131,14.91671231503963
174,44380,VILLARQUEMADO,40.5169,-1.2648,222,15.03409409307286
175,04459,OHANES,37.050250000000005,-2.7401,1337,26.52584207045727
176,41420,FUENTES DE ANDALUCIA,37.4641,-5.3461,700,13.878959557310898
177,23660,ALCAUDETE,37.5902,-4.0829,1784,16.464868507505912
178,40450,NAVA DE LA ASUNCION,41.1559,-4.4875,1318,15.997864848911819
179,04569,BENTARIQUE,36.98565,-2.6082,300,18.362326503579173
180,47420,ISCAR,41.3612,-4.5335,588,17.90437211157076
181,49400,FUENTESAUCO,41.2304,-5.4972,147,18.06870270580124
182,50230,ALHAMA DE ARAGON,41.2966,-1.8936,243,20.665814048910125
183,21410,ISLA-CRISTINA,37.2009,-7.3215,3706,11.429904799900015
184,14310,OBEJO,38.1328,-4.8002,671,23.223801392506022
185,04620,VERA,37.2475,-1.8684,3422,21.74103710345487
186,50177,BUJARALOZ,41.4977,-0.1529,1396,22.03280694793687
187,04647,GUAZAMARA,37.40370909090909,-1.7692181818181816,877,23.329216971225527
188,14930,MONTURQUE,37.4715,-4.5805,1643,17.829504465188005
189,04650,ZURGENA,37.34824,-2.02574,963,29.34350133647569
190,33680,COLLANZO DE ALLER,43.12292,-5.5642,1220,18.589077754564734
191,41809,ALBAIDA DEL ALJARAFE,37.4235,-6.1667,1563,13.988100417103485
192,33760,CASTROPOL,43.5265,-7.0299,1297,22.712102586982976
193,04712,BALERMA,36.7307,-2.8866,3022,15.272180819672498
194,41610,PARADAS,37.290125,-5.496449999999999,2864,14.589349673143055
195,29640,FUENGIROLA,36.5504,-4.6193,9547,16.90016420912054
196,27640,BECERREA,42.8371,-7.1636,546,24.850969890447768
197,45638,PEPINO,40.0318,-4.8033,10334,6.7144139681620745
198,04738,ALMERIA,36.81305999999999,-2.64072,4801,15.644286821420406
199,36770,ROSAL,42.0167,-8.8333,823,13.442377804393889
200,23430,RUS,38.0479,-3.4617,418,16.48093496792784
201,20014,SAN SEBASTIAN-DONOSTIA,43.3128,-1.975,23757,12.509667202941253
202,43130,TARRAGONA,41.1917,1.60835,24727,8.689162573283111
203,31514,VALTIERRA,42.1949,-1.6334,2462,22.02347470409695
204,04830,VÉLEZ BLANCO,37.7333,-2.1092875,507,29.181572456190267
205,20001,SAN SEBASTIAN-DONOSTIA,43.3128,-1.975,6850,15.358518687151927
206,15150,BAYO GRANDE,43.15481428571429,-8.9311,1162,18.080942897917893
207,32689,CUALEDRO,41.9822,-7.573416666666667,817,22.1827359749265
208,16622,PINAREJO,39.6158,-2.4258,433,18.360294095085877
209,04860,OLULA DEL RIO,37.35,-2.3,777,29.34350133647569
210,19001,GUADALAJARA,40.6332,-3.1662,17885,11.318434303141332
211,14700,PALMA DEL RIO,37.7002,-5.2812,2741,15.714950463977026
212,41460,"NAVAS DE LA CONCEPCION, LAS",37.9333,-5.4667,1350,19.86402708623508
213,04890,SERON,37.3449,-2.5091,214,27.507649114352997
214,12580,BENICARLO,40.4165,0.4271,5379,14.72557048543164
215,45570,PUENTE DEL ARZOBISPO (EL,39.8017,-5.1718,815,14.46791145155814
216,50400,CARIÑENA,41.338,-1.2251,739,19.113745812578472
217,25620,TREMP,42.1665,0.895,848,13.329956688823382
218,05100,NAVALUENGA,40.4108,-4.7062,442,27.293936315299604
219,05461,MIJARES,40.2962,-4.837,228,25.394935477686516
220,05530,MUÑOGALINDO,40.59466666666666,-4.902066666666666,143,26.31647456310298
221,25680,VALLFOGONA DE BALAGUER,41.7521,0.8138,1656,13.00611558210219
222,05220,MADRIGAL DE LAS ALTAS TO,41.07535,-5.00905,224,25.850422562688266
223,05230,NAVAS DEL MARQUES (LAS),40.6024,-4.3345,1986,17.759996271364166
224,15980,PADRON,42.7108,-8.7447,2262,16.317897025225538
225,14600,MONTORO,38.19941,-3.12087,955,20.762074561621727
226,05268,HERRADON DE PINARES,40.5427,-4.5804,175,25.11876802533918
227,05005,AVILA,40.6572,-4.6995,7803,21.863660502044553
228,50580,VERA DE MONCAYO,41.824,-1.688,159,19.702306955402513
229,19180,MARCHAMALO,40.6683,-3.2025,1376,17.41404574529249
230,05350,SAN PEDRO DEL ARROYO,40.78925,-4.874700000000001,282,26.129516926466554
231,34230,TORQUEMADA,42.0337,-4.3199,162,18.550495505575423
232,45620,MONTESCLAROS,40.1067,-4.9383,361,17.045909239713566
233,24230,VALDEVIMBRE,42.4197,-5.618,359,25.165798656563183
234,18700,ALBUÑOL,36.792,-3.203,839,15.599782044363657
235,25320,ANGLESOLA,41.6569,1.0835,2070,13.978943725582775
236,15293,CARNOTA,42.8303,-9.09036,964,16.873505289563468
237,45350,NOBLEJAS,39.9788,-3.441,7811,10.854373272078666
238,41550,AGUADULCE,37.283166666666666,-5.063533333333333,2829,16.152100177495026
239,10470,VILLANUEVA DE LA VERA,40.13,-5.4625,592,17.96419290338585
240,05593,LAS NAVAS,40.410866666666664,-5.396816666666666,263,26.423962335051357
241,18013,GRANADA,37.2004,-3.6099,21934,17.347465087082462
242,29009,MALAGA,36.7202,-4.4203,6852,14.473701263402459
243,37740,SANTIBAÑEZ DE BEJAR,40.4879,-5.6111,1268,27.286477119986113
244,28050,MADRID,40.4975,-3.6637,247638,11.119469599088278
245,05415,HORNILLO (EL),40.2502,-5.1037,638,26.667456654215
246,37900,SANTA MARTA DE TORMES,40.9507,-5.6272,20151,15.092644849715004
247,19462,ILLANA,40.6656,-2.07,600,25.67171913277282
248,34800,AGUILAR DE CAMPOO,42.7945,-4.2589,779,24.163849689464968
249,10650,AHIGAL,40.1894,-6.1877,4939,15.408097439522331
250,27611,PARADELA,42.755805555555554,-7.581094444444444,1822,21.501161507249364
251,24007,LEON,42.6,-5.5703,9893,17.45257022242226
252,06005,BADAJOZ,38.8742,-6.9783,7397,13.014910635744654
253,33468,TRASONA,43.549490909090906,-5.871145454545455,7807,15.856828801788033
254,47511,SIETEIGLESIAS DE TRABANCOS,41.3522,-5.1849,389,21.9897638594794
255,06130,VALVERDE DE LEGANES,38.6706,-6.9804,1335,16.271141935089254
256,06140,TALAVERA LA REAL,38.8779,-6.7686,571,14.744989475882008
257,45700,CONSUEGRA,39.4608,-3.6077,1368,7.124258350457201
258,22880,CANFRANC,42.6513,-0.4517,1418,19.73079144146683
259,06200,ALMENDRALEJO,38.681,-6.4064,4350,18.900577120103296
260,41740,LEBRIJA,36.9192,-6.0761,1942,12.716105175194397
261,33879,TINEO,43.35769772727273,-6.407702272727272,447,32.12023535782237
262,50240,MORES,41.4733,-1.5649,1656,20.60906264244833
263,26526,CORNAGO,42.0651,-2.0953,125,17.433179448262266
264,06260,MONESTERIO,38.0882,-6.2722,272,19.201053604805804
265,06300,ZAFRA,38.4229,-6.4166,1878,21.097652477984084
266,48270,MARKINA-XEMEIN,43.2684,-2.4985,5504,13.682241114669491
267,49800,TORO,41.5242,-5.3953,751,20.825224506547237
268,06400,DON BENITO,38.9564,-5.8612,2172,20.153657055962164
269,39577,VEGA DE LIEBANA,43.0889625,-4.6832,267,13.918658234331206
270,24237,TORAL DE LOS GUZMANES,42.26583333333333,-5.565633333333333,343,23.709343709191955
271,33210,GIJON,43.5357,-5.6615,16772,13.004861217075026
272,17773,PONTOS,42.17636666666667,2.919833333333333,710,13.80298198193874
273,50830,VILLANUEVA DE GALLEGO,41.7692,-0.8235,387,20.696011614165652
274,23500,JODAR,37.8406,-3.3526,2272,17.4000855632952
275,32111,PADERNE DE ALLARIZ,42.4756,-7.9174,1898,17.842767497863427
276,46182,"CAÑADA, LA",39.53185,-0.4841499999999999,16697,14.489943853655923
277,49690,SAN CRISTOBAL DE ENTREVIÑAS,42.0458,-5.6347,1776,23.976613805599012
278,06614,ALMORCHON,38.7,-5.2833,376,22.28605747929128
279,06770,CASAS DE DON PEDRO,39.1082,-5.3308,230,23.286045883886654
280,28214,FRESNEDILLAS,40.1642,-3.7327,3689,13.017520665847831
281,06700,VILLANUEVA DE LA SERENA,38.9766,-5.7974,1431,21.209025519736556
282,34886,VELILLA DEL RIO CARRION,42.8261,-4.8463,781,26.100750845870348
283,24393,SANTA MARINA DEL REY,42.50082857142858,-5.836914285714286,1724,24.913885629170533
284,15689,ORDENES,43.0771380952381,-8.424495238095238,1485,14.961048502476098
285,15810,ARZUA,42.9281,-8.1641,1065,18.232626012388067
286,22423,ESTADILLA,42.0566,0.2436,3141,18.609519636253374
287,06870,"GARROVILLA, LA",38.9201,-6.4777,1018,18.269759475881084
288,46295,SUMACARCEL,39.06575,-0.61015,1243,18.225198366572062
289,06930,BERLANGA,38.2821,-5.8297,820,22.22188150169016
290,33459,CASTRILLON,43.54141111111111,-6.030788888888889,1499,21.017209858960488
291,10380,CIUDAD REAL,39.666,-5.8134,104,13.606335909474316
292,39860,RASINES,43.28878571428571,-3.454278571428571,1052,11.04861128284243
293,24010,LEON,42.6,-5.5703,2492,21.336217231248334
294,14549,"MONTIELA, LA",37.55945,-4.826925,1343,16.39241313795091
295,46837,QUATRETONDA,38.9459,-0.402,1165,14.962054705825503
296,10520,CASATEJADA,39.8868,-5.6819,912,14.199167619108792
297,43422,BARBERA DE LA CONCA,41.4,1.2333,5793,16.57326070238522
298,27720,PUENTE NUEVO,43.3262,-7.1462,642,23.284827255669335
299,21660,MINAS DE RIOTINTO,37.6969,-6.5943,513,18.912941912833805
300,34410,MONZÓN DE CAMPOS,42.116,-4.4928,7163,15.37087208743933
301,32540,"GUDIÑA, LA",42.011,-7.0647,266,22.72434709669964
302,13003,CIUDAD REAL,38.9906,-3.9272,7651,10.921834867251283
303,37310,MACOTERA,40.8304,-5.2856,387,28.866632939806504
304,32800,CELANOVA,42.1531,-7.9569,665,19.743188979965037
305,48006,BILBAO,43.2558,-2.9181,88033,9.036372114567463
306,14206,VALSEQUILLO,38.4055,-5.3513,416,23.23292858955941
307,10616,CASAS DEL CASTAÑAR,40.1104,-5.8988,877,12.556638010376304
308,39696,SELAYA,43.206575,-3.7754,784,11.03620182665762
309,45640,REAL DE SAN VICENTE (EL),40.0918,-4.6769,381,6.200399124403941
310,27865,OUROL,43.55831666666666,-7.6,1181,18.569614170240826
311,49200,BERMILLO DE SAYAGO,41.3665,-6.1122,315,19.916462981118595
312,45790,QUERO,39.5108,-3.2482,4327,9.677218174453227
313,15337,BARQUERO (MAÑON),43.61886666666666,-7.805716666666666,248,17.710480485680115
314,12400,SEGORBE,39.8508,-0.4881,607,15.296251334144333
315,36860,PONTEAREAS,42.1778,-8.5,881,14.389037750197424
316,14260,FUENTE LA LANCHA,38.4167,-5.0333,186,23.22380139250602
317,10630,PINOFRANQUEADO,40.2965,-6.33315,526,16.04764238621482
318,10440,ALDEANUEVA DE LA VERA,40.1271,-5.7015,985,12.324928607852865
319,08120,HOSPITALET DE LLOBREGAT,41.5172,2.198,55777,13.733504503002852
320,13500,PUERTOLLANO,38.688,-4.107,2918,14.72897270664924
321,28411,MORALZARZAL,40.6782,-3.9707,24007,12.471897357858136
322,28903,GETAFE,40.3184,-3.719,108799,10.977568523782828
323,10800,CORIA,39.9866,-6.5358,1332,18.1777568511077
324,23009,JAEN,37.7692,-3.7903,3138,14.82551422903474
325,17174,SAN FELIU DE PALLAROL,42.096900000000005,2.5213,4891,13.174383031429237
326,18151,"OGIJARES, LOS",37.1191,-3.6077,3263,18.7491356801769
327,13100,PIEDRABUENA,39.0349,-4.1755,740,12.447849132208322
328,25125,ALGUAIRE,41.7369,0.5836,2205,12.548441887869245
329,21449,LEPE,37.20755,-7.21985,235,11.429904799900015
330,45002,TOLEDO,39.8563,-4.0266,13289,6.959199294784167
331,15080,CORUÑA A,42.3749,-7.8049,695,16.731028934274246
332,12185,CUEVAS DE VINROMA,40.346525,0.1354,219,14.584804795219451
333,40593,SEGOVIA,41.281,-3.6014,4904,7.774739979613859
334,19133,BUDIA,40.627,-2.754314285714286,1134,28.827308364908706
335,43878,MASDENVERGE,40.7149,0.5311,4813,12.82904694440201
336,08211,CASTELLAR DEL VALLES,41.6167,2.075,24974,11.400330633600209
337,13412,CHILLON,38.796,-4.8663,583,15.913542152370294
338,45800,QUINTANAR DE LA ORDEN,39.5937,-3.0417,4684,9.862205993482632
339,15863,"BAÑA, LA",42.9054,-8.6916,1364,15.767924229975922
340,45170,SAN MARTIN DE PUSA,39.784,-4.6325,1700,10.108836504243564
341,27620,SAMOS,42.7329,-7.32,692,23.17625683677515
342,13670,VILLARRUBIA DE LOS OJOS,39.2208,-3.608,1212,11.915057187734192
343,49190,MORALES DEL VINO,41.4474,-5.7307,1592,18.05525414007148
344,15320,PUENTES DE GARCIA RODRIGUEZ,43.4262,-7.9567,800,14.607620541416871
345,39530,PUENTE SAN MIGUEL,43.359,-4.0851,8896,14.144062905425528
346,08240,MANRESA,41.725,1.8448,8204,15.634793693668426
347,49610,SANTIBAÑEZ DE VIDRIALES,42.0736,-6.0155,96,24.431105960016918
348,22660,ESCARRILLA,42.7345,-0.313,1046,19.739707557574835
349,14730,POSADAS,37.8026,-5.1081,890,20.472055621739095
350,17452,MASSANET DE LA SELVA,41.7653,2.6532,18546,12.459685386530435
351,33640,UJO,43.20507647058824,-5.7921,3243,16.109025672010436
352,27163,CORGO,42.88065454545454,-7.385068181818181,694,24.231127718140463
353,16250,CASTILLEJO DE INIESTA,39.5333,-1.7667,1090,13.186319661950781
354,15704,SANTIAGO DE COMPOSTELA,42.8805,-8.5457,13274,13.426771306161596
355,25750,TORA,41.8167,1.4,922,13.755879161655333
356,25793,COLL DE NARGO,42.139275,1.25675,1071,15.178612716204995
357,17142,VERGES,42.0619,3.0459,3245,14.078254626108489
358,28649,ROZAS DE PUERTO REAL,40.3167,-4.4833,1095,22.256703233821625
359,31360,FUNES,42.3149,-1.8018,3433,18.994304415415588
360,24410,CAMPONARAYA,42.59478333333333,-6.67165,3450,18.59037580055832
361,31150,MENDIGORRIA,42.616,-1.8448666666666669,690,21.404424541418372
362,14914,PALENCIANA,37.2486,-4.5828,760,16.138148726641433
363,12540,VILA-REAL,39.9333,-0.1,20446,12.71693545271188
364,22533,BELVER DE CINCA,41.7214,0.25375,503,18.485975852272563
365,16320,TALAYUELAS,39.8491,-1.2842,779,12.812916519823329
366,40003,SEGOVIA,40.9534,-4.1161,14570,11.356389437883113
367,24800,CISTIERNA,42.8035,-5.1269,394,26.373479529267605
368,19005,GUADALAJARA,40.6404,-3.1558,183,15.113325047485693
369,14350,CERRO MURIANO,37.8916,-4.7727,426,18.668582598228923
370,33584,SEVARES,43.35013125,-5.26170625,904,21.89506103464229
371,10864,TORRE DE DON MIGUEL,40.2233,-6.5769,236,18.45961885876789
372,08394,SANT VICENC DE MONTALT,41.5785,2.5088,15296,17.463555076623106
373,50344,MORATA DE JILOCA,41.248,-1.5867,183,20.03856859275101
374,44001,TERUEL,40.3422,-1.109,4710,14.8556330134469
375,25599,ARTIES,42.6984,0.8712,771,12.216955160604117
376,14460,DOS TORRES,38.4441,-4.8953,139,23.223801392506022
377,16640,BELMONTE,39.5576,-2.7046,850,19.621078360515753
378,27260,CASTRO RIBERAS DE LEA,43.1558,-7.5043,1630,20.630372903312576
379,46418,RIOLA,39.1833,-0.3145,5157,15.178153739437395
380,25560,SORT,42.4117,1.1306,635,13.933834953884283
381,47310,CAMPASPERO,41.4922,-4.1954,177,18.071328134251857
382,47230,MATAPOZUELOS,41.4145,-4.7899,1520,21.601859232514805
383,36400,"PORRIÑO, O",42.2603,-8.4818,4555,14.29330644816171
384,16100,VALVERDE DE JUCAR,39.7187,-2.2214,340,18.829449952687032
385,17474,TORROELLA DE FLUVIA,42.1867,3.034625,13878,13.689925718151192
386,18680,SALOBREÑA,36.745149999999995,-3.5943500000000004,3438,21.200180473458396
387,08518,GURB,41.9333,2.0667,472,15.640023819709862
388,28720,BUSTARVIEJO,40.8585,-3.71,4518,12.78864695719363
389,23004,JAEN,37.7692,-3.7903,8085,13.969645937538951
390,41660,VILLANUEVA DE SAN JUAN,37.0495,-5.1754,688,16.03341913960523
391,50290,EPILA,41.6005,-1.2801,1243,18.922735219402796
392,13740,TORRENUEVA,38.6403,-3.3633,2846,14.60484036629537
393,28690,BRUNETE,40.4049,-3.9993,27058,11.397707947113519
394,08552,TARADELL,41.8723,2.2869,5782,15.953697270524806
395,49021,ZAMORA,41.5063,-5.7446,5312,18.79493795198635
396,23180,FUERTE DEL REY,37.8749,-3.8839,380,15.23618189819138
397,08573,ORIS,42.0597,2.2207,1732,15.965313386022679
398,42100,AGREDA,41.8559,-1.9224,145,17.497962594825456
399,08610,AVIA,42.0667,1.85,1683,14.818460227676432
400,44570,CALANDA,40.9405,-0.231,965,29.432401147380954
401,08612,MONTMAJOR,42.019,1.7361,1486,14.790959832231938
402,36691,SOTOMAYOR,42.3358,-8.5962,2027,15.429439761859706
403,16003,CUENCA,40.06,-2.1397,8676,13.549381491718139
404,44460,SARRION,40.1333,-0.8167,281,15.099591247295319
405,14200,PEÑARROYA-PUEBLONUEVO,38.304,-5.2696,837,23.223801392506022
406,41760,"CORONIL, EL",37.0789,-5.6346,2517,14.322921816241024
407,39593,ROIZ (VALDALIGA),43.31677142857143,-4.305942857142857,1672,14.182973299127536
408,44540,ALBALATE DEL ARZOBISPO,41.1217,-0.5114,270,17.63619777758639
409,21360,"REPILADO, EL",37.9273,-6.771,656,20.03594440411721
410,50006,ZARAGOZA,41.6398,-0.8902,59646,11.405805834242539
411,28630,VILLA DEL PRADO,40.2785,-4.3053,1826,12.88555002589617
412,27297,LUGO,43.008680000000005,-7.56142,9951,17.624540899972914
413,37250,ALDEADAVILA DE LA RIBERA,41.12655,-6.52035,137,28.977897818397516
414,08696,"POBLA DE LILLET, LA",42.2641,1.9954,130,14.010526590413178
415,33790,PUERTO DE VEGA,43.56088,-6.64522,413,26.731516461320577
416,08710,SANTA MARGARITA DE MONTBUY,41.55,1.6167,5167,16.0775763704454
417,14830,ESPEJO,37.6804,-4.5537,1954,17.44686515823773
418,15882,PUENTE LEDESMA (BOQUEIJON),42.8,-8.3333,890,17.03507239811604
419,14003,CORDOBA,37.8916,-4.7727,24226,11.992864954283885
420,32644,CALVOS DE RANDIN,41.9479,-7.896,752,21.397024560093946
421,40446,MARTIN MUÑOZ DE LAS POSADAS,40.9955,-4.5967,1171,24.372621895149063
422,32200,CORTEGADA,42.2526,-8.1466,762,17.933667360237454
423,27324,SEOANE (FOLGOSO DE CAUREL),42.653,-7.15535,206,23.732263896479992
424,45519,NOVES,40.0138,-4.294,5908,6.880976858477147
425,49140,TABARA,41.8246,-5.9642,178,24.431105960016918
426,14440,VILLANUEVA DE CORDOBA,38.3228,-4.6287,300,23.22380139250602
427,13200,MANZANARES,38.99925,-3.3709,2173,13.614039069723189
428,21510,SAN BARTOLOME DE LA TORRE,37.4452,-7.106,1544,14.857541552201797
429,08783,MASQUEFA,41.5012,1.8142,11913,14.109012483816093
430,36960,SANXENXO,42.4098,-8.7759,3257,12.670788373208286
431,37797,CALZADA DE VALDUNCIEL,41.0866,-5.7022,324,25.44361076444382
432,28190,Montejo de la Sierra,41.0884875,-3.41745,78,10.940574197355659
433,10891,ELJAS,40.2168,-6.8459,556,23.047004112423217
434,28890,LOECHES,40.3846,-3.4139,52022,11.784063277259634
435,08798,SANT CUGAT SESGARRIGUES,41.3646,1.751,17076,11.54906272149455
436,13330,VILLANUEVA DE LA FUENTE,38.6946,-2.6964,821,14.294789964659854
437,28742,LOZOYA,40.9202,-3.7886,233,14.40133235718062
438,08028,BARCELONA,41.378,2.1278,189246,10.319514487333311
439,13170,MIGUELTURRA,38.9646,-3.8899,1255,12.174734786538435
440,36600,VILLAGARCIA DE AROSA,42.5963,-8.7643,2906,14.052060694623963
441,31798,PAMPLONA,42.95762222222223,-1.601711111111111,454,18.84408094272413
442,36005,PONTEVEDRA,42.431,-8.6444,7939,12.189498675307512
443,28730,BUITRAGO DEL LOZOYA,40.9909,-3.6337,646,15.45536728348324
444,43700,"VENDRELL, EL",41.2262,1.5329,13492,12.244490616464997
445,46171,CASINOS,39.6993,-0.7077,734,14.958644885330331
446,10850,HOYOS,40.1712,-6.7209,265,17.36671154895479
447,46450,BENIFAYO,39.2844,-0.426,5142,14.954747293657986
448,10370,DELEITOSA,39.6435,-5.6455,223,15.509941320503046
449,28722,VELLON (EL),40.7677,-3.5346,4727,14.933378969820208
450,37720,PUERTO DE BÉJAR,40.3388,-5.8767,3467,12.934342066030105
451,14650,BUJALANCE,37.89544,-4.38068,890,20.63555226630679
452,21639,CANDON,37.3906,-6.7389,1566,17.08656073190069
453,14800,PRIEGO DE CORDOBA,37.4394,-4.195533333333333,1604,22.293910715704307
454,12192,VILAFAMES,40.1167,-0.05,1983,14.097626844720017
455,33592,NUEVA LLANES,43.4297,-4.921383333333334,716,22.25236179524445
456,50637,REMOLINOS,41.8391,-1.177,2823,19.707462517957836
457,16444,CERVERA DEL LLANO,39.7831,-2.4202,549,19.91605300120964
458,40320,CANTALEJO,41.2582,-3.927,816,16.580513535368198
459,23460,PEAL DE BECERRO,37.9134,-3.1215,1260,18.27214166062303
460,33520,NAVA,43.3586,-5.5079,4061,17.773729616218862
461,27500,CHANTADA,42.6811,-7.7835,420,24.31323897916749
462,16230,VILLANUEVA DE LA JARA,39.4333,-1.9333,642,13.6377726617793
463,26144,GALILEA,42.33453333333333,-2.239333333333333,855,16.37788968213617
464,25003,LLEIDA,41.6135,0.6147,14219,12.944611970872037
465,17532,PUIGCERDA,42.3505,1.9718,1874,13.314901816589138
466,45578,CAMPILLO DE LA JARA (EL),39.5892,-5.0553,313,14.538595592029536
467,43596,HORTA DE SAN JUAN,40.95,0.3167,1284,12.658955084272648
468,39697,SOTO IRUZ,43.25605,-3.948,2769,11.949711270301938
469,09100,MELGAR DE FERNAMENTAL,42.4044,-4.2448,377,18.682913787698222
470,27380,PARGA (SAN ESTEBO),42.8114,-7.438300000000001,1237,22.65852114502335
471,09006,BURGOS,42.3558,-3.6834,13067,15.77858771507764
472,50450,MUEL,41.4671,-1.0848,348,16.438071071186034
473,21730,ALMONTE,37.2605,-6.5173,2216,12.273364856737293
474,09292,MONASTERIO DE RODILLA,42.440961538461536,-3.4206692307692306,2087,17.36317991710807
475,45007,TOLEDO,39.8581,-4.0226,6682,6.961401136056506
476,26300,NAJERA,42.4182,-2.7287,724,16.342922296523422
477,09197,VILLALBILLA DE BURGOS,42.40595,-3.7228,576,14.832989100455983
478,50191,JUSLIBOL,41.625,-1.0346,3527,15.121681652375973
479,16400,TARANCON,40.0085,-3.0073,2021,21.00213451612835
480,09342,SANTA MARIA DEL CAMPO,42.10456666666666,-4.025066666666667,211,22.11330599400847
481,26121,VIGUERA,42.308675,-2.54255,391,17.368424244583597
482,46512,FAURA,39.7257,-0.2642,5177,14.447572384075425
483,25332,FULIOLA,41.71695,1.0109,1585,13.557910681650833
484,09540,TRESPADERNE,42.79805,-3.4051,57,17.448864160211254
485,17252,SAN ANTONI DE CALONGE,41.8457,3.0997,11363,13.919173277931252
486,09560,ESPINOSA DE LOS MONTEROS,43.0775,-3.5536,683,15.0516404614194
487,50170,MEQUINENZA,41.3748,0.3023,1919,18.229237196984485
488,42142,ESPEJÓN,41.79814,-3.2261,194,15.935153155087537
489,42148,CASAREJOS,41.7671875,-2.975025,776,17.505630975046035
490,09670,QUINTANAR DE LA SIERRA,41.9829,-3.0377,171,17.202753109768334
491,25720,BELLVER DE CERDAÑA,42.3667,1.7833,352,15.132099435748888
492,19283,ANGUITA,41.02736,-2.3947,960,28.348987661708897
493,10004,CACERES,39.4765,-6.3722,7437,11.930444600536678
494,43320,PRATDIP,41.06856666666667,0.8563666666666667,2766,12.894194866913127
495,27200,PALAS DE REI,42.8895,-7.8954,500,24.043874800919284
496,10110,MADRIGALEJO,39.1376,-5.6284,280,17.723439219323968
497,10189,ZARZA DE MONTANCHEZ,39.2898,-6.018233333333334,1173,18.8182995064428
498,15670,"BURGO, EL (CULLEREDO)",43.3167,-8.3667,36166,12.82038666787697
499,32514,FEAS (BOBORAS),42.49600789473684,-7.930907894736842,814,19.548463927591808
500,15959,OURENSE,42.5833,-8.95,10697,15.753827343982369
501,10140,GUADALUPE,39.4522,-5.3268,634,18.237060960916324
502,24398,ALMÁZCARA,42.588,-6.492133333333332,580,20.166890815191838
503,49519,RABANALES,41.74326,-6.28444,301,22.481643943680112
504,25552,VILALLER,42.4798,0.72525,359,11.999271400243789
505,47014,VALLADOLID,41.64,-4.7542,27380,15.55610543509934
506,26511,"VILLAR DE ARNEDO, EL",42.3209,-2.0953,803,18.35752032008332
507,10184,TORREMOCHA,39.3459,-6.1733,711,20.42607568710053
508,33555,CARREÑA DE CABRALES,43.317,-4.861716666666667,657,22.23634642384439
509,19115,ALMOGUERA,40.2972,-2.9819,585,18.231749568567665
510,21130,MAZAGON,37.1142,-6.7644,1357,15.040168001810665
511,23770,MARMOLEJO,38.0451,-4.1712,2141,14.231299137464232
512,16441,VILLAS VIEJAS,39.859,-2.7147,633,21.511269348424758
513,45214,CEDILLO DEL CONDADO,40.1126,-3.9213,3576,7.23268857668668
514,17520,PUIGCERDA,42.4242,1.9203,1792,15.854045064675402
515,10210,MADROÑERA,39.4254,-5.7558,176,16.86040739956065
